[{"place_id": "ChIJBw12GwJZwokRCoPEwRCi3G0", "name": "Things To Do In New York", "location": {"lat": 40.7534339, "lng": -73.9766921}}, {"place_id": "ChIJ4zGFAZpYwokRGUGph3Mf37k", "name": "Central Park", "location": {"lat": 40.7828647, "lng": -73.9653551}}, {"place_id": "ChIJ5bQPhMdZwokRkTwKhVxhP1g", "name": "The High Line", "location": {"lat": 40.7479925, "lng": -74.0047649}}, {"place_id": "ChIJRcvoOxpawokR7R4dQMXMMPQ", "name": "9/11 Memorial", "location": {"lat": 40.711576, "lng": -74.0132769}}, {"place_id": "ChIJaXQRs6lZwokRY6EFpJnhNNE", "name": "Empire State Building", "location": {"lat": 40.7484405, "lng": -73.98566439999999}}, {"place_id": "ChIJUW4vEPxYwokRW6o24DU0YIg", "name": "St. Patrick's Cathedral", "location": {"lat": 40.7584653, "lng": -73.97599269999999}}, {"place_id": "ChIJVdeFgMBZwokR6O7aBJFn0g4", "name": "Ground Zero Museum Workshop", "location": {"lat": 40.741231, "lng": -74.00670099999999}}, {"place_id": "ChIJe7vKMf9YwokRIMYfDz7iF9o", "name": "Top of the Rock", "location": {"lat": 40.7591164, "lng": -73.9795433}}, {"place_id": "ChIJN6W-X_VYwokRTqwcBnTw1Uk", "name": "Lincoln Center for the Performing Arts", "location": {"lat": 40.7724641, "lng": -73.9834889}}, {"place_id": "ChIJTWE_0BtawokRVJNGH5RS448", "name": "One World Observatory", "location": {"lat": 40.7133444, "lng": -74.0133677}}, {"place_id": "ChIJraKL-BJawokREpxDmF5GcL4", "name": "Battery Park", "location": {"lat": 40.7032775, "lng": -74.0170279}}, {"place_id": "ChIJPS8b1vhYwokRldqq2YHmxJI", "name": "Radio City Music Hall", "location": {"lat": 40.75997599999999, "lng": -73.9799772}}, {"place_id": "ChIJs6UWAT1awokRQopDDN7vSwo", "name": "New York Explorer Pass\u00ae", "location": {"lat": 40.7508054, "lng": -73.9894432}}, {"place_id": "ChIJjX494pBZwokRGH620d9eYfo", "name": "Washington Square Park", "location": {"lat": 40.7308228, "lng": -73.997332}}, {"place_id": "ChIJPTacEpBQwokRKwIlDXelxkA", "name": "Statue of Liberty National Monument", "location": {"lat": 40.6892494, "lng": -74.04450039999999}}, {"place_id": "ChIJmZ5emqJYwokRuDz79o0coAQ", "name": "Solomon R. Guggenheim Museum", "location": {"lat": 40.7829796, "lng": -73.9589706}}, {"place_id": "ChIJvbGg56pZwokRp_E3JbivnLQ", "name": "Bryant Park", "location": {"lat": 40.7535965, "lng": -73.9832326}}, {"place_id": "ChIJ8VOfr1RYwokRE441DHuxQNc", "name": "Ripley's Believe It or Not! Times Square", "location": {"lat": 40.756359, "lng": -73.988873}}, {"place_id": "ChIJeWPFRwJZwokRGD60OOo74RU", "name": "Chrysler Building", "location": {"lat": 40.7516208, "lng": -73.97550199999999}}, {"place_id": "ChIJ20bVJYdZwokRhI7esP3mYM0", "name": "Tenement Museum", "location": {"lat": 40.7187958, "lng": -73.99006969999999}}]