[{"place_id": "ChIJqWqOqFeifDURpYJ5LnxX-Fw", "name": "N Seoul Tower", "location": {"lat": 37.5511694, "lng": 126.9882266}}, {"place_id": "ChIJod7tSseifDUR9hXHLFNGMIs", "name": "Gyeongbokgung Palace", "location": {"lat": 37.579617, "lng": 126.977041}}, {"place_id": "ChIJ8cRRtD-ifDURoBcqFZyRluE", "name": "War Memorial of Korea", "location": {"lat": 37.5366059, "lng": 126.9771397}}, {"place_id": "ChIJT8H4r9qifDURmuXJ_6m6vM0", "name": "Bukchon Hanok Village", "location": {"lat": 37.5824075, "lng": 126.9836531}}, {"place_id": "ChIJ4wh0zluifDURaFBW2pdrKf8", "name": "Changdeokgung", "location": {"lat": 37.5794309, "lng": 126.9910426}}, {"place_id": "ChIJIwCT4-yifDUR1E63iG76hr0", "name": "Cheonggyecheon", "location": {"lat": 37.5713521, "lng": 127.0246275}}, {"place_id": "ChIJZS97StuYfDURraecFL6AhiQ", "name": "Trickeye Museum Seoul", "location": {"lat": 37.5535655, "lng": 126.9217263}}, {"place_id": "ChIJPXacoeqifDURZFdnLXIyirI", "name": "Gwanghwamun Gate", "location": {"lat": 37.57593689999999, "lng": 126.9768157}}, {"place_id": "ChIJMcWZMY2ifDUR2NLv8F3Togc", "name": "Deoksugung", "location": {"lat": 37.5658049, "lng": 126.9751461}}, {"place_id": "ChIJz7ocWtiifDURU-HmRwLa3yQ", "name": "Jongmyo Shrine", "location": {"lat": 37.574583, "lng": 126.994143}}, {"place_id": "ChIJN2x0fu2ifDUR51BupseGYmE", "name": "National Museum of Korea", "location": {"lat": 37.5238506, "lng": 126.9804702}}, {"place_id": "ChIJ72K1TGqkfDURa_ENqoUeeXs", "name": "Coex Aquarium", "location": {"lat": 37.5126825, "lng": 127.0589009}}, {"place_id": "ChIJod7tSseifDUR4HuzvkBA2ns", "name": "The National Folk Museum of Korea", "location": {"lat": 37.5816456, "lng": 126.9789948}}, {"place_id": "ChIJ77fEAzuffDURLEWNv56G2KQ", "name": "Yeouido Hangang Park", "location": {"lat": 37.5284017, "lng": 126.9343012}}, {"place_id": "ChIJmylq-vyifDUR_r3t4Ve-w3k", "name": "Namsangol Hanok Village", "location": {"lat": 37.559315, "lng": 126.994477}}, {"place_id": "ChIJwdG3fCKffDURTqwXKg_qbBA", "name": "Yeouido Park", "location": {"lat": 37.523816, "lng": 126.918916}}, {"place_id": "ChIJM8FN8Sa9fDUR8AuT-DOiy0M", "name": "Korea Furniture Museum", "location": {"lat": 37.6001592, "lng": 126.9934353}}, {"place_id": "ChIJgZn6QWmkfDURaU3kwlecaEU", "name": "Bongeunsa", "location": {"lat": 37.514852, "lng": 127.0573766}}, {"place_id": "ChIJHYhJ5OmifDURMOSQ2D-6lFY", "name": "Jogyesa", "location": {"lat": 37.5743716, "lng": 126.9826498}}, {"place_id": "ChIJG3DtPjujfDURYLo4yZIGnIc", "name": "JW Marriott Dongdaemun Square Seoul", "location": {"lat": 37.5704076, "lng": 127.008782}}]