[{"place_id": "ChIJ9xUuiNcT2jER49FS2OpE8W8", "name": "Night Safari", "location": {"lat": 1.4021872, "lng": 103.7880606}}, {"place_id": "ChIJvWDbfRwa2jERgNnTOpAU3-o", "name": "Singapore Botanic Gardens", "location": {"lat": 1.3138397, "lng": 103.8159136}}, {"place_id": "ChIJ4UVXsxEY2jERZ3a6nVN3LqI", "name": "The Intan", "location": {"lat": 1.3146402, "lng": 103.9010239}}, {"place_id": "ChIJT4lHCgMZ2jERloDE6WmkdMk", "name": "Supertree Grove", "location": {"lat": 1.2819617, "lng": 103.8639057}}, {"place_id": "ChIJ3eg6SXMZ2jERCxutt4adUyY", "name": "Chinatown Heritage Centre", "location": {"lat": 1.2835085, "lng": 103.8443515}}, {"place_id": "ChIJMxZ-kwQZ2jERdsqftXeWCWI", "name": "Gardens by the Bay", "location": {"lat": 1.2815683, "lng": 103.8636132}}, {"place_id": "ChIJO1VVxd8b2jERTvL6uurcNWY", "name": "Southern Ridges", "location": {"lat": 1.2801016, "lng": 103.8029949}}, {"place_id": "ChIJ9ak4I6wb2jERO6x4oAUh_-g", "name": "Haw Par Villa", "location": {"lat": 1.2842878, "lng": 103.7824933}}, {"place_id": "ChIJd0VihwEZ2jERKeREhO6G1Qg", "name": "Cloud Forest", "location": {"lat": 1.2838677, "lng": 103.8660024}}, {"place_id": "ChIJPYrvewEZ2jERK-pztVWcDig", "name": "Flower Dome", "location": {"lat": 1.2846292, "lng": 103.8646975}}, {"place_id": "ChIJnWdQKQQZ2jERScXuKeFHyIE", "name": "ArtScience Museum", "location": {"lat": 1.2862738, "lng": 103.8592663}}, {"place_id": "ChIJW8o1nqQZ2jERynZN2M1BODM", "name": "Singapore Art Museum", "location": {"lat": 1.2973072, "lng": 103.8510615}}, {"place_id": "ChIJ50uIMa0Z2jER0cTt5fLaZt0", "name": "Marina Barrage", "location": {"lat": 1.2805281, "lng": 103.8711746}}, {"place_id": "ChIJD1u-EaMZ2jERaLhNfFkR45I", "name": "National Museum of Singapore", "location": {"lat": 1.2966147, "lng": 103.8485095}}, {"place_id": "ChIJ56qqmhsa2jERVxXMSM9vax0", "name": "National Orchid Garden", "location": {"lat": 1.3116834, "lng": 103.8149013}}, {"place_id": "ChIJVSYjJKIZ2jERpRFinATD52s", "name": "Fort Canning Park", "location": {"lat": 1.2945118, "lng": 103.8458004}}, {"place_id": "ChIJnXwAOKAZ2jERAs-MHs1aDgI", "name": "Clarke Quay", "location": {"lat": 1.2906024, "lng": 103.8464742}}, {"place_id": "ChIJdXkrRKIZ2jERL3OFhRYeSp4", "name": "The Battlebox", "location": {"lat": 1.2961093, "lng": 103.8462113}}, {"place_id": "ChIJoZOhmQkZ2jERehLfvKlsoCA", "name": "Asian Civilisations Museum", "location": {"lat": 1.2874969, "lng": 103.8513861}}, {"place_id": "ChIJr9wqENkT2jERkRs7pMj6FLQ", "name": "Singapore Zoo", "location": {"lat": 1.4043485, "lng": 103.793023}}]