[{"place_id": "ChIJfUpAzTqsQjQRwQl6ORhwbV0", "name": "National Palace Museum", "location": {"lat": 25.1023554, "lng": 121.5484925}}, {"place_id": "ChIJTamiuZ2pQjQRsmnfkkID6UM", "name": "National Chiang Kai-shek Memorial Hall", "location": {"lat": 25.0346119, "lng": 121.521781}}, {"place_id": "ChIJSTLZ6barQjQRMdkCqrP3CNU", "name": "Taipei 101 Observatory", "location": {"lat": 25.0336076, "lng": 121.5647587}}, {"place_id": "ChIJKanLVw2sQjQRit_tnMKZm6Q", "name": "Taipei Marriott Hotel", "location": {"lat": 25.080561, "lng": 121.559223}}, {"place_id": "ChIJbSTgI2WpQjQRcVwWB2cnyfE", "name": "Huashan 1914 Creative Park", "location": {"lat": 25.0441303, "lng": 121.5293995}}, {"place_id": "ChIJwyJxyO6pQjQRilcOb_lBRr4", "name": "National Dr. Sun Yat-Sen Memorial Hall", "location": {"lat": 25.0400306, "lng": 121.5602452}}, {"place_id": "ChIJh90cG7CuQjQREjsXlsNfsTg", "name": "Shilin Night Market", "location": {"lat": 25.0886283, "lng": 121.5244037}}, {"place_id": "ChIJWXlWGearQjQRNEj80OdQoVw", "name": "Mandarin Oriental, Taipei", "location": {"lat": 25.055801, "lng": 121.548349}}, {"place_id": "ChIJg6W0DZyrQjQR9vZdgYMRoj0", "name": "Raohe Night Market", "location": {"lat": 25.0509541, "lng": 121.5775254}}, {"place_id": "ChIJO0vOI7-rQjQR3Pl9_4cPK8g", "name": "Songshan Cultural Creative Park", "location": {"lat": 25.0436921, "lng": 121.5606419}}, {"place_id": "ChIJoWFCL2qpQjQRs7QGBRmf42Q", "name": "Taipei Confucius Temple", "location": {"lat": 25.0729457, "lng": 121.5166017}}, {"place_id": "ChIJG3jOqVmpQjQRlMAW5wvvwrA", "name": "Hsing Tian Kong", "location": {"lat": 25.0630699, "lng": 121.5339017}}, {"place_id": "ChIJnzZlOoCpQjQRH-WG9egh-2E", "name": "Daan Park", "location": {"lat": 25.032435, "lng": 121.5349054}}, {"place_id": "ChIJb5w3o6uuQjQRlsXYoJ97zS4", "name": "National Revolutionary Martyrs' Shrine", "location": {"lat": 25.0783811, "lng": 121.5331279}}, {"place_id": "ChIJKX1kH3WpQjQRcyy76pvtt-s", "name": "2/28 Peace Park", "location": {"lat": 25.0418254, "lng": 121.5149875}}, {"place_id": "ChIJCd7n16ipQjQRihzEWF4z6Pg", "name": "Lungshan Temple", "location": {"lat": 25.0371623, "lng": 121.4999007}}, {"place_id": "ChIJmX9y62OpQjQRufPZ_fJir5k", "name": "MyTaiwanTour", "location": {"lat": 25.0266795, "lng": 121.5214846}}, {"place_id": "ChIJy3gG2-6qQjQRhcojBWHBiGE", "name": "Holiday Inn East Taipei", "location": {"lat": 25.00427, "lng": 121.598712}}, {"place_id": "ChIJG9qGWr-uQjQRR1iXVOTfVl8", "name": "Taipei Children's Amusement Park", "location": {"lat": 25.0972354, "lng": 121.5149423}}, {"place_id": "ChIJDZHrcOerQjQR8Y5jVhInyTM", "name": "Les Suites Taipei (Ching-Cheng Boutique Hotel)", "location": {"lat": 25.05277, "lng": 121.544968}}]