[{"place_id": "ChIJ380v_Rs4zDERg-ayesQ7RaY", "name": "Royal Selangor Visitor Centre", "location": {"lat": 3.1963425, "lng": 101.7245123}}, {"place_id": "ChIJ_Y2Rm81JzDERKAawVfuGOd8", "name": "Sultan Abdul Samad Building", "location": {"lat": 3.1486842, "lng": 101.6944038}}, {"place_id": "ChIJH5xmLdE3zDERVpCKfNH9Op4", "name": "Petronas Twin Towers", "location": {"lat": 3.1577966, "lng": 101.7119592}}, {"place_id": "ChIJu8zWwchJzDERhcsx4AhQ1oo", "name": "KL Bird Park", "location": {"lat": 3.1430959, "lng": 101.688736}}, {"place_id": "ChIJUXIQqzJIzDERDbwltFc9Pm8", "name": "Sri Mahamariamman Temple", "location": {"lat": 3.1440248, "lng": 101.6965097}}, {"place_id": "ChIJM5cxndM3zDER7WuP_cN-omg", "name": "Aquaria KLCC", "location": {"lat": 3.153687, "lng": 101.7131625}}, {"place_id": "ChIJE1jNHStIzDERujrDO85YYBA", "name": "Menara Kuala Lumpur", "location": {"lat": 3.153614, "lng": 101.7041392}}, {"place_id": "ChIJm2U8Ks5JzDERYYKXZ6FFNfk", "name": "Central Market Kuala Lumpur", "location": {"lat": 3.1456614, "lng": 101.6954687}}, {"place_id": "ChIJORWImM1JzDERWTN2vAb5CzQ", "name": "Merdeka Square", "location": {"lat": 3.1488405, "lng": 101.6937029}}, {"place_id": "ChIJEWkeL7ZJzDER38lq7GVsWyk", "name": "Perdana Botanical Gardens", "location": {"lat": 3.143, "lng": 101.68466}}, {"place_id": "ChIJBWbm2tM3zDERTno0px940s4", "name": "KLCC Park", "location": {"lat": 3.1556012, "lng": 101.7146522}}, {"place_id": "ChIJiXsntdY3zDER0-B-9En1XOQ", "name": "Petrosains, The Discovery Centre", "location": {"lat": 3.1574451, "lng": 101.7121612}}, {"place_id": "ChIJ68ZMF8ZJzDERCamRC45CXEQ", "name": "Royal Malaysia Police Museum", "location": {"lat": 3.1414556, "lng": 101.6889653}}, {"place_id": "ChIJq6qqqslJzDERi7V1y0B-5Xw", "name": "Muzium Kesenian Islam Malaysia", "location": {"lat": 3.1414747, "lng": 101.6897371}}, {"place_id": "ChIJt08oBMFJzDERbR8ljkk7Tj0", "name": "MyAdventureHost | Water Rafting | KL Sentral Pick Up", "location": {"lat": 3.134656, "lng": 101.687403}}, {"place_id": "ChIJh6BgydFJzDERNDpCGS808VM", "name": "Sin Sze Si Ya Temple", "location": {"lat": 3.1455461, "lng": 101.6964474}}, {"place_id": "ChIJt_wYo9RJzDERYT1Vud3Ze9Q", "name": "KL Forest Eco Park", "location": {"lat": 3.1500606, "lng": 101.7023678}}, {"place_id": "ChIJESgheOI3zDER0LaKtRB8-ZY", "name": "Taman Tasik Titiwangsa", "location": {"lat": 3.1802193, "lng": 101.7073845}}, {"place_id": "ChIJ_8vrTBY2zDERLXw_LCLcqZY", "name": "Kuala Lumpur Tours", "location": {"lat": 3.1301018, "lng": 101.7211252}}, {"place_id": "ChIJqSc-d_JJzDERbOlsCf-UmNs", "name": "Thean Hou Temple", "location": {"lat": 3.1218299, "lng": 101.6876636}}]