[{"place_id": "ChIJ-xLGm-OZ4jAR9ybBn23dTtc", "name": "Things to make and do", "location": {"lat": 13.768267, "lng": 100.444667}}, {"place_id": "ChIJH4I85c2e4jARUMYLeiqfBd0", "name": "Sea Life Bangkok", "location": {"lat": 13.7460298, "lng": 100.5349789}}, {"place_id": "ChIJDSl047Ce4jARMnQrVw5ktUI", "name": "Victory Monument", "location": {"lat": 13.7649276, "lng": 100.5382926}}, {"place_id": "ChIJG7BL7Saf4jARNmn5AQiyAaw", "name": "Lumphini Park", "location": {"lat": 13.7314058, "lng": 100.5414396}}, {"place_id": "ChIJWVT7hDKZ4jARGJOhe21RhOk", "name": "Jim Thompson House", "location": {"lat": 13.7491168, "lng": 100.5283841}}, {"place_id": "ChIJmSZII8SY4jARri-gCgtDbfo", "name": "Bangkok Food Tours", "location": {"lat": 13.7325564, "lng": 100.5313135}}, {"place_id": "ChIJM2HqLK-f4jARj_xwApEvCok", "name": "Bangkok Marriott Hotel Sukhumvit", "location": {"lat": 13.7233714, "lng": 100.5804653}}, {"place_id": "ChIJgcxFcQWZ4jARLsIR9Qia9H0", "name": "Wat Phra Chetuphon Vimolmangklararm Rajwaramahaviharn", "location": {"lat": 13.7465067, "lng": 100.4925884}}, {"place_id": "ChIJaSv_6gaZ4jARnbiUVn6Z_YY", "name": "Wat Arun Ratchawaram Ratchaworamawihan", "location": {"lat": 13.7437, "lng": 100.4889265}}, {"place_id": "ChIJWaoiBdmY4jAReVIX1maq_-I", "name": "Budda d'oro", "location": {"lat": 13.7377012, "lng": 100.5135898}}, {"place_id": "ChIJ5Wl37g6Z4jARiP4itarBPDQ", "name": "Temple of the Emerald Buddha (Wat Phra Kaew)", "location": {"lat": 13.7516435, "lng": 100.4927041}}, {"place_id": "ChIJsSK-Pc-e4jARb7gqQpPkGlY", "name": "Pratunam Market", "location": {"lat": 13.7508559, "lng": 100.5407283}}, {"place_id": "ChIJvaruo7-Y4jARyI6OZRkhHqU", "name": "Chatrium Hotel Riverside Bangkok", "location": {"lat": 13.7111621, "lng": 100.5091692}}, {"place_id": "ChIJpYbWb8aY4jAR5PmlBlsxOoM", "name": "Eastin Grand Hotel Sathorn", "location": {"lat": 13.71899, "lng": 100.521924}}, {"place_id": "ChIJya0AFA-Z4jARNaRzjuLiyMc", "name": "The Grand Palace", "location": {"lat": 13.7500965, "lng": 100.4912866}}, {"place_id": "ChIJ-1XYzC6f4jARSdSWAJgAoLk", "name": "Dusit Thani Bangkok", "location": {"lat": 13.7281475, "lng": 100.5374975}}, {"place_id": "ChIJ65AUYMSY4jARxBkQ61bBf2k", "name": "Shangri-La Hotel, Bangkok", "location": {"lat": 13.7209455, "lng": 100.5140153}}, {"place_id": "ChIJV0YZRNmY4jARhoPwJOh_TgM", "name": "Co van Kessel Bangkok - Bike and Boat tours", "location": {"lat": 13.7305913, "lng": 100.5136395}}, {"place_id": "ChIJmfMfvBuf4jAR9rugvZd5Lyc", "name": "Benchakiti Park", "location": {"lat": 13.7259376, "lng": 100.5587785}}, {"place_id": "ChIJI6YDVQOZ4jARjo2Hah2dwYE", "name": "Grasshopper Adventures Bangkok Bike Tours", "location": {"lat": 13.7573, "lng": 100.499992}}]