[{"place_id": "ChIJYUiHi1dwsjURZK_REO37Vk0", "name": "The Bund", "location": {"lat": 31.2402611, "lng": 121.490577}}, {"place_id": "ChIJidPZMUGHrTUR29eIuHbpoIQ", "name": "Yu Garden", "location": {"lat": 31.2272355, "lng": 121.492094}}, {"place_id": "ChIJjRzxRRdxsjUR9ZQIMPCCt58", "name": "Shanghai Jewish Refugees Museum", "location": {"lat": 31.254309, "lng": 121.509167}}, {"place_id": "ChIJITbxC1ZwsjURnPu6dGO5S2c", "name": "Waibaidu Bridge", "location": {"lat": 31.242818, "lng": 121.490184}}, {"place_id": "ChIJPWUSbWlwsjURbNvIw3tOTE0", "name": "Shanghai Museum", "location": {"lat": 31.22833069999999, "lng": 121.4755278}}, {"place_id": "ChIJ55ol4WlwsjURpJ-32hKzuFY", "name": "Shanghai Urban Planning Exhibition Center", "location": {"lat": 31.231406, "lng": 121.475422}}, {"place_id": "ChIJ2-UI76F6sjURj_HAeG5PMhE", "name": "Tianzifang", "location": {"lat": 31.20881199999999, "lng": 121.468898}}, {"place_id": "ChIJG66k73RwsjUREw5sPBxvjYw", "name": "Fuxing Park", "location": {"lat": 31.216192, "lng": 121.4698992}}, {"place_id": "ChIJP5OCAWBwsjURfYtYWcmjxXU", "name": "Yuyuan Old Street", "location": {"lat": 31.227392, "lng": 121.491391}}, {"place_id": "ChIJY2v3jN9vsjURmJotCOxoanY", "name": "Jade Buddha Temple", "location": {"lat": 31.2413465, "lng": 121.4451206}}, {"place_id": "ChIJwefaxOVwsjURO6kUnqabBCA", "name": "Shanghai World Financial Center", "location": {"lat": 31.2345644, "lng": 121.5074394}}, {"place_id": "ChIJ33XthSl7sjURtfalYd9mk60", "name": "Longhua Temple", "location": {"lat": 31.173807, "lng": 121.451911}}, {"place_id": "ChIJuccQ7El3sjURFulj6_8THUg", "name": "Century Park", "location": {"lat": 31.212134, "lng": 121.543724}}, {"place_id": "ChIJfc_j3rxwsjURqSIcLyTnWZM", "name": "Mandarin Oriental Pudong, Shanghai", "location": {"lat": 31.243574, "lng": 121.507348}}, {"place_id": "ChIJ070dKpmLrTURKJlpICBYzKE", "name": "Fairmont Peace Hotel", "location": {"lat": 31.2390388, "lng": 121.4895427}}, {"place_id": "ChIJKdMQelFlsjUR8EZO0Myxeu4", "name": "Propaganda Poster Art Center", "location": {"lat": 31.2137939, "lng": 121.4387817}}, {"place_id": "ChIJ29SwJftwsjURZYXg4jufPhY", "name": "Oriental Pearl TV Tower", "location": {"lat": 31.2396889, "lng": 121.4997553}}, {"place_id": "ChIJi1b23d1xsjURJtfQOHLyeEc", "name": "Shanghai Circus World Ticket Office", "location": {"lat": 31.278053, "lng": 121.451741}}, {"place_id": "ChIJMzz1sUBwsjURoWTDI5QSlQI", "name": "Shanghai", "location": {"lat": 31.2303904, "lng": 121.4737021}}, {"place_id": "ChIJF2exlVdwsjURgBlRH6bRetg", "name": "The Waterhouse at South Bund", "location": {"lat": 31.2202149, "lng": 121.5056475}}]